row_type,archive,flight_id,profile,member_path,source_url,compressed_size_bytes,uncompressed_size_bytes,row_count,valid_velocity_row_count,duration_s,sample_rate_hz_est,speed_max_m_s,speed_p99_m_s,speed_p95_m_s,speed_p50_m_s,horizontal_speed_max_m_s,vbat_min_v,vbat_p05_v,vbat_p50_v,vbat_at_vmax_v,vbat_sag_from_nominal_at_vmax_v,thrust_sum_p50,thrust_sum_p95,thrust_sum_max,thrust_mean_p50,thrust_mean_p95,thrust_mean_at_vmax,channels_thrust_p50_us,channels_thrust_p95_us,channels_thrust_at_vmax_us,gyro_norm_p95_rad_s,gyro_norm_max_rad_s,imu_accel_norm_p95_m_s2,imu_accel_norm_max_m_s2,velocity_derived_accel_norm_p95_m_s2,velocity_derived_accel_norm_max_m_s2,drone_residual_p50,drone_residual_p95,elapsed_time_at_vmax_s,vx_at_vmax_m_s,vy_at_vmax_m_s,vz_at_vmax_m_s,roll_at_vmax_rad,pitch_at_vmax_rad,yaw_at_vmax_rad,speed_max_over_readme_floor,current_racing_x_drag_at_vmax_n,current_racing_x_drag_at_vmax_over_margin,current_racing_required_total_thrust_over_max_at_vmax,current_racing_tilt_deg_for_drag_balance_at_vmax,thrust_0_at_vmax,thrust_1_at_vmax,thrust_2_at_vmax,thrust_3_at_vmax
ratm_flight_metric,autonomous,flight-01a-ellipse,ellipse,autonomous/flight-01a-ellipse/flight-01a-ellipse_500hz_freq_sync.csv,https://github.com/Drone-Racing/drone-racing-dataset/releases/tag/v3.0.0,8905283,32496890,11239,11239,22.476,500.0,21.757546901540174,21.24282397686418,18.39881915962326,0.23349872235292468,21.74860661180269,21.29999924,21.89999962,23.79999924,22.438961516688526,-0.2389615166885264,0.9891564649767133,2.807429323286192,3.910462172455251,0.24728911624417832,0.701857330821548,0.3053005353212861,1260.0,1709.0,1327.0,5.492510036584526,11.725773438058575,43.10040272361169,68.59842147018364,52.11319214041174,184.45878519349574,0.0008590286887052342,0.0015706766571042595,12.092,21.747086329103926,0.2571492746416816,-0.6236646677283771,-0.6120909636115703,0.468147590553719,0.4513463006446281,1.0360736619781035,86.39382960902148,1.6327966804704244,1.612309043724755,82.88276331067617,0.3458365411550152,0.21810257571143618,0.3753878286987082,0.2818751957199848
ratm_flight_metric,autonomous,flight-02a-ellipse,ellipse,autonomous/flight-02a-ellipse/flight-02a-ellipse_500hz_freq_sync.csv,https://github.com/Drone-Racing/drone-racing-dataset/releases/tag/v3.0.0,9561556,35332621,12263,12263,24.524,500.0,21.796705068729455,21.164877401684578,18.165643698954796,0.21127586764941816,21.787298316921067,21.0,21.98426502084241,24.0,22.43848425311456,-0.23848425311456012,0.9802816857605985,2.6501620151888083,3.924943953589359,0.24507042144014962,0.6625405037972021,0.2875913700359497,1259.0,1675.0,1299.0,5.300917536144164,11.938654421381372,41.66504627008646,67.21043660614218,50.0672369967186,236.74290777094686,0.0007983994230769231,0.0015508699575651622,10.596,21.78634639870162,0.20366282501347382,-0.6402998537128347,-0.6213184765659341,0.47359376479395604,0.45855732153846157,1.0379383366061645,86.70508421320469,1.6386792242445736,1.6180287623838097,82.90805219934538,0.2423301478070701,0.2876345053385261,0.3508322330437388,0.26956859395446375
ratm_flight_metric,autonomous,flight-03a-ellipse,ellipse,autonomous/flight-03a-ellipse/flight-03a-ellipse_500hz_freq_sync.csv,https://github.com/Drone-Racing/drone-racing-dataset/releases/tag/v3.0.0,9441525,34749112,12204,12204,24.406,500.0,21.808377312515752,21.175249804134484,18.174318159478972,0.21175634138097335,21.79779531206896,20.89999962,21.79999924,24.0,22.20000076,-7.600000024865494e-07,0.9744009126327271,2.700070124599315,3.858652774068574,0.24360022815818178,0.6750175311498288,0.28933931344430025,1258.0,1682.8500000000004,1293.0,5.260631720252375,11.814560883341718,41.65391407526101,65.20745599447564,50.6789406435635,412.59060238706206,0.0008255750164835164,0.0015563006453296704,12.47,21.797656112825834,-0.07790028139958707,-0.6792941470350977,-0.6245566687032967,0.7306014688131869,0.5092008251868132,1.0384941577388453,86.79797108342194,1.640434735882805,1.6197357433528619,82.91556449031724,0.27923816471151924,0.26759083649431026,0.31363206399780397,0.2968961885735676
ratm_flight_metric,autonomous,flight-04a-ellipse,ellipse,autonomous/flight-04a-ellipse/flight-04a-ellipse_500hz_freq_sync.csv,https://github.com/Drone-Racing/drone-racing-dataset/releases/tag/v3.0.0,11159092,41776502,14555,14555,29.108,500.0,21.853335709578793,20.89424685942994,17.415471821786372,0.14211623719097047,21.846300061565223,21.20000076,22.146452115479924,24.20000076,22.20000076,-7.600000024865494e-07,0.9755793672507352,2.4107654337116715,3.9207014404569946,0.2438948418126838,0.6026913584279179,0.300884086922449,1258.0,1622.0,1308.0,4.636628681716985,11.929310372267226,37.37408939085753,68.2480805812638,46.63901067820409,230.37882966825742,0.0008828295494505494,0.0014797775384615382,12.986,21.84595130360239,-0.12344237756026459,-0.5544864791922028,-0.6286577210769231,0.8489807533846154,0.5420278971538461,1.0406350337894663,87.15621139848817,1.6472052841950857,1.6263193810459557,82.94438973127687,0.2928996018367347,0.2975918467346939,0.3324653072816327,0.2805795918367347
ratm_flight_metric,autonomous,flight-05a-ellipse,ellipse,autonomous/flight-05a-ellipse/flight-05a-ellipse_500hz_freq_sync.csv,https://github.com/Drone-Racing/drone-racing-dataset/releases/tag/v3.0.0,9040416,33390424,11637,11637,23.272,500.00000000000006,21.795676088851234,21.259112363726782,18.297753463032382,0.2214997620095846,21.784441585879005,21.0,21.70752864625643,23.70000076,22.10000038,0.0999996199999984,0.996099203300736,2.7313311546943164,3.8150525856436746,0.249024800825184,0.6828327886735791,0.29109825939800993,1260.0,1692.4000000000015,1301.0,5.303247067767846,11.903025085587906,43.218297409258675,66.36244078585271,50.65191504673656,189.4977022540299,0.0008896478512396694,0.0015371980818681323,11.44,21.78419260533034,0.10415249610827437,-0.6997149144807437,-0.617236212,0.558573203,0.467590653,1.0378893375643445,86.69689805104716,1.6385245102047274,1.6178783267091763,82.90738937763953,0.24376617053731342,0.298264678,0.33277712304477614,0.2895850660099502
ratm_flight_metric,autonomous,flight-06a-ellipse,ellipse,autonomous/flight-06a-ellipse/flight-06a-ellipse_500hz_freq_sync.csv,https://github.com/Drone-Racing/drone-racing-dataset/releases/tag/v3.0.0,9728036,36311921,12663,12663,25.324,499.99999999999994,21.812341364386203,21.131772533059994,18.042737690423753,0.2057791254060968,21.80554843120968,21.29999924,22.132967837837324,24.10000038,22.42776938351944,-0.22776938351944054,0.9794174627271819,2.543667777076032,3.9191468489947034,0.24485436568179547,0.635916944269008,0.2901832958768102,1259.0,1663.0,1304.0,5.136656641815874,11.88751403683117,40.1751656386161,69.88148226695527,50.155399021480186,238.03538358588764,0.000835760126721763,0.001509019824450549,12.262,21.805057548278633,-0.1463137112093716,-0.5443284033398456,-0.6213025136318681,0.8811449386648352,0.5418941163681318,1.0386829221136287,86.82952803286369,1.6410311451695268,1.6203156713856588,82.91811307864171,0.2932201944058719,0.27990934120809363,0.3170388850862924,0.2705647628069828
ratm_flight_metric,autonomous,flight-07a-lemniscate,lemniscate,autonomous/flight-07a-lemniscate/flight-07a-lemniscate_500hz_freq_sync.csv,https://github.com/Drone-Racing/drone-racing-dataset/releases/tag/v3.0.0,12775299,44728405,15442,15442,30.882,500.0,10.1155347134837,9.839317823677863,7.969884591179195,0.20890341852001684,10.10802474168199,22.89999962,23.39999962,24.10000038,23.60000038,-1.4000003800000016,0.9703501145398767,1.555813758535041,2.427803002680144,0.24258752863496919,0.3889534396337602,0.2748409848401772,1257.0,1412.0,1296.0,4.300916284843673,7.036335958477615,21.520597678211953,39.728013181029624,37.89949031378426,183.3537620501663,0.0018955842058547513,0.0021835687727193263,17.112,8.224164095106499,5.876673303427405,-0.3897157441501753,-0.4635106682011019,-0.023920110217630852,0.6393209766584022,0.48169212921350957,18.674137763494112,0.3529311096506436,0.3993691811334791,59.98666314436816,0.31726095282488564,0.29969797764291156,0.2646269944921875,0.21777801440072408
ratm_flight_metric,autonomous,flight-08a-lemniscate,lemniscate,autonomous/flight-08a-lemniscate/flight-08a-lemniscate_500hz_freq_sync.csv,https://github.com/Drone-Racing/drone-racing-dataset/releases/tag/v3.0.0,10505327,37087059,12833,12833,25.664,499.99999999999994,10.083998858597024,9.877824214812888,8.0099995282403,0.29120291771453555,10.077266565432526,23.0,23.33021930289975,24.10000038,23.70000076,-1.5000007600000025,0.9779002752012254,1.596055006402465,2.4125816915121026,0.24447506880030634,0.39901375160061625,0.2847695743630797,1259.0,1422.0,1309.0,4.42093602953285,6.852392265592102,22.743389872580863,39.80838469743871,40.24829240046509,242.22126819653317,0.0016327774104683197,0.002258431487603306,14.102,8.15292721952662,5.922928260909987,-0.3684176290595389,-0.40566064186813183,0.007734271868131868,0.6419080753296704,0.4801904218379535,18.55788351888396,0.3507339672673381,0.39750646206482676,59.83144621689536,0.33271812881148366,0.27998434049387677,0.289148765308171,0.2372270628387874
ratm_flight_metric,autonomous,flight-09a-lemniscate,lemniscate,autonomous/flight-09a-lemniscate/flight-09a-lemniscate_500hz_freq_sync.csv,https://github.com/Drone-Racing/drone-racing-dataset/releases/tag/v3.0.0,10224274,36235937,12595,12595,25.188,500.0,10.08433798315962,9.895856738760715,8.00738546038236,0.3010928554515146,10.07143180542844,23.10000038,23.39999962,24.0,23.70000076,-1.5000007600000025,0.9812197538276795,1.5876165906205428,2.4352118603564357,0.24530493845691986,0.3969041476551357,0.28976635097892334,1259.0,1422.0,1305.0,4.433663574459722,7.2165934998675265,23.059954413416126,39.26466539178257,40.225098469673576,313.2990100865205,0.0014408865454545454,0.001891747636813186,11.742,8.124758838650692,5.951641153930825,-0.5100332804829721,-0.25923922382967035,0.09540362697252747,0.6248932296868133,0.4802065706266485,18.559131741943734,0.3507575580084559,0.3975264465342125,59.83312050601633,0.31611365175723716,0.26904987303199596,0.31221177607313355,0.2616901030533266
ratm_flight_metric,autonomous,flight-10a-lemniscate,lemniscate,autonomous/flight-10a-lemniscate/flight-10a-lemniscate_500hz_freq_sync.csv,https://github.com/Drone-Racing/drone-racing-dataset/releases/tag/v3.0.0,11319150,39783988,13805,13805,27.608,500.0,10.10523670659058,9.891479346353336,7.983229721521056,0.2559212090651135,10.098000163683343,22.89999962,23.39999962,24.10000038,23.636392831209356,-1.436392831209357,0.9705834292483235,1.5727084530666484,2.4192703187162365,0.24264585731208088,0.3931771132666621,0.20944085755743308,1258.0,1418.0,1225.0,4.354456301728819,7.005872556299408,22.379879965677762,38.85839518816171,39.153280408306685,245.9483319542317,0.0014322392802197804,0.0018385301730027548,13.638,8.403209924932971,5.599613403017823,-0.38236316569039897,-0.7090198027197802,-0.07909756619230769,0.6442773744285714,0.4812017479328847,18.636135123561175,0.35221288029777864,0.39875995081256027,59.93608344832078,0.2104742737801405,0.19932313656920447,0.2509901247427378,0.1769758951376495
ratm_flight_metric,autonomous,flight-11a-lemniscate,lemniscate,autonomous/flight-11a-lemniscate/flight-11a-lemniscate_500hz_freq_sync.csv,https://github.com/Drone-Racing/drone-racing-dataset/releases/tag/v3.0.0,9104249,32087472,11197,11197,22.392,500.0,10.098444648596848,9.922101827855597,8.018809022238397,0.7007574144525972,10.09569498874471,22.5,23.0,23.70000076,23.29999924,-1.099999239999999,1.0000957300420832,1.6543153146233345,2.4898770785416877,0.2500239325105208,0.4135788286558336,0.3976108974947442,1262.0,1432.0,1425.0,4.570109669618101,6.8993784641991835,23.638513498045818,39.7194975662371,41.92117485922278,210.1562963998585,0.0013616092754820937,0.001938460136819242,12.406,8.632870370401395,5.234176771337658,0.23564170897628375,0.6011659867225275,0.3194831645934066,0.42134434995329667,0.4808783165998499,18.611091638541314,0.3517395719678563,0.3983586424141936,59.902667215714864,0.5091233366853539,0.3186958709600561,0.4812011222494744,0.2814232600840925
ratm_flight_metric,autonomous,flight-12a-lemniscate,lemniscate,autonomous/flight-12a-lemniscate/flight-12a-lemniscate_500hz_freq_sync.csv,https://github.com/Drone-Racing/drone-racing-dataset/releases/tag/v3.0.0,9428172,33672345,11689,11689,23.376,500.0,10.067702510323466,9.906568252116301,8.014258778492271,0.42312275667216553,10.066489483940178,23.0,23.29999924,24.0,23.5,-1.3000000000000007,0.9845127568765617,1.6048373229714645,2.469645785282041,0.24612818921914043,0.40120933074286613,0.23152897102897102,1260.0,1427.6000000000004,1240.0,4.482904362160706,6.895417466975242,23.47513486026263,39.65459986323217,41.71418675500852,247.6900263098946,0.0014358924615384616,0.0020144885068870523,12.246,8.505460972016788,5.384361074795913,-0.1562795767054757,-0.844299891030303,-0.08091440371349862,0.6559091596859504,0.4794144052534984,18.497950675138146,0.34960126891651633,0.3965473175610174,59.75085749055205,0.2288347671768232,0.16456223776223777,0.31104934064935064,0.22166953852747254
ratm_flight_metric,autonomous,flight-13a-trackRATM,trackRATM,autonomous/flight-13a-trackRATM/flight-13a-trackRATM_500hz_freq_sync.csv,https://github.com/Drone-Racing/drone-racing-dataset/releases/tag/v3.0.0,29227585,103422519,23192,23192,46.382,500.0,21.24864623840087,20.658538065853577,14.866171352168832,0.9819355769633467,20.80559588546777,21.001059490806764,21.5,23.687421708431877,22.10000038,0.0999996199999984,0.9950000048395635,2.547153301270909,3.4059399254345446,0.24875000120989088,0.6367883253177272,0.48831753610262446,1263.0,1642.0,1494.0,6.418285382867337,18.465691562911996,37.480623356592666,50.92208212636847,60.62201418302364,282.6345172364392,0.0009570139711538462,0.0018621767300858235,25.024,-20.71121600014791,-1.1704031650423905,4.602244581851702,-0.7351232674972528,-0.712755158260989,2.8144819008928574,1.011840297066708,82.3996564710591,1.557308967164935,1.5389400926831267,82.54156417461944,0.33962737156966843,0.5165139738485425,0.5205698737303416,0.5765589252619453
ratm_flight_metric,autonomous,flight-14a-trackRATM,trackRATM,autonomous/flight-14a-trackRATM/flight-14a-trackRATM_500hz_freq_sync.csv,https://github.com/Drone-Racing/drone-racing-dataset/releases/tag/v3.0.0,29881292,107205777,23900,23900,47.798,500.0,21.3700532167382,20.679956146549095,14.782476866095141,0.9728112495363441,20.888598626081702,20.601165442680134,20.97242285738326,23.364905346045436,21.60000038,0.5999996199999984,1.00494210934343,2.5157361448063136,3.2105679033409587,0.2512355273358575,0.6289340362015784,0.2612668490148252,1263.0,1625.0,1214.0,5.716807960874596,18.887525092362633,35.678006941869114,49.06490675321826,59.53965356660952,348.0732561922896,0.0009762715174030514,0.001950660992520737,26.404,-20.863693794411212,-1.0197224203622304,4.510612145228222,-0.9568563104683195,-0.341941379077135,2.62377765792011,1.017621581749438,83.34394934373563,1.5751555920324256,1.5562807014749622,82.6251332684662,0.057115095662626465,0.27646078333166385,0.33284272313032154,0.378648793934689
ratm_flight_metric,autonomous,flight-15a-trackRATM,trackRATM,autonomous/flight-15a-trackRATM/flight-15a-trackRATM_500hz_freq_sync.csv,https://github.com/Drone-Racing/drone-racing-dataset/releases/tag/v3.0.0,27605894,100493485,22502,22502,45.002,500.0,21.142044850811907,20.70863705751547,14.936588329880811,0.9906530956717076,20.693425927633797,20.70000076,21.10000038,23.37500662621372,21.813983660311653,0.3860163396883465,1.0070000172237166,2.548583181028298,3.2817536789773847,0.25175000430592914,0.6371457952570745,0.2331370319655034,1265.0,1633.0,1231.0,5.8503255607218465,18.23620033768361,36.626057483836185,48.255470771924635,60.067642263903984,277.81259394142546,0.000964431201923077,0.0019488023616383615,23.958,-20.672727339016802,-0.9253221002083574,4.332226200381922,-0.9509978735576923,-0.344868668228022,2.5909275926236264,1.0067640405148528,81.57495603645796,1.5417225747328225,1.5237983659150767,82.46702310817467,0.13773745817288408,0.24292398370637786,0.2841119098997192,0.26777477608303246
ratm_flight_metric,autonomous,flight-16a-trackRATM,trackRATM,autonomous/flight-16a-trackRATM/flight-16a-trackRATM_500hz_freq_sync.csv,https://github.com/Drone-Racing/drone-racing-dataset/releases/tag/v3.0.0,27733504,101053798,22596,22596,45.19,500.0,21.352892084013423,20.731193791597384,14.884544287689875,0.9900761937917633,20.858215709861604,21.103864960358035,21.60000038,23.79999924,22.318205179789334,-0.11820517978933509,0.9953229268696666,2.512804966796848,3.4677925102044536,0.24883073171741665,0.628201241699212,0.3950403788464614,1263.0,1638.0,1370.0,6.85486656069612,20.018590901725577,36.894970706080294,51.20795692750105,62.772881028854115,342.8680137794043,0.0009549699381868131,0.0019167329807692308,24.526,-20.81255960024726,-1.2021784227008394,4.619321408786278,-0.7894363145879121,-0.6414741682692309,2.8013207409203296,1.0168043849530202,83.21014506415295,1.5726267634745987,1.5538233749112689,82.61340513504042,0.28375209916033584,0.401157531047581,0.456845245957617,0.43840663922031187
ratm_flight_metric,autonomous,flight-17a-trackRATM,trackRATM,autonomous/flight-17a-trackRATM/flight-17a-trackRATM_500hz_freq_sync.csv,https://github.com/Drone-Racing/drone-racing-dataset/releases/tag/v3.0.0,28359405,101436002,22665,22665,45.328,499.99999999999994,21.276562312180126,20.71516460673434,14.858476135919751,0.9891477870189624,20.81312487444883,20.70000076,20.935468722757037,23.0,21.796454079926097,0.40354592007390266,1.0109999905994937,2.518723785092483,3.166802425686412,0.25274999764987344,0.6296809462731208,0.16789939195531425,1265.0,1625.0,1160.0,5.859649029030127,18.484632135311788,35.94262586783484,49.00263340452382,61.33285105003816,295.90571658412847,0.0009846762307692308,0.0019033060264462807,23.218,-20.783827143364757,-1.1039457931144359,4.416552590503486,-0.9701621057142857,-0.3251707043296704,2.619241742989011,1.0131696339133394,82.61630894789528,1.5614035818682617,1.542918318405536,82.56090377477173,0.058918434747798246,0.1837254706255004,0.2283506803032426,0.20060298214471578
ratm_flight_metric,autonomous,flight-18a-trackRATM,trackRATM,autonomous/flight-18a-trackRATM/flight-18a-trackRATM_500hz_freq_sync.csv,https://github.com/Drone-Racing/drone-racing-dataset/releases/tag/v3.0.0,29747874,108105268,24188,24188,48.374,500.0,21.39254029584254,20.651740622840293,14.763782676258902,0.9670868795529146,20.917205676158936,20.89999962,21.20000076,23.425461868243804,21.89999962,0.3000003800000002,1.004129294291297,2.5276105183811604,3.2991714053817676,0.25103232357282423,0.6319026295952901,0.1910123057952872,1264.0,1627.0,1168.0,5.622691517044635,18.138060372478407,36.34119269234117,49.31984507588889,57.73681159047332,300.2622418260812,0.000898949652892562,0.0019006404173553728,26.426,-20.890289321998132,-1.0608041015882328,4.484560960730853,-0.9289964907768595,-0.3671533658181818,2.6298713648099175,1.018692395040121,83.51944240643755,1.5784723160568386,1.5595037444459154,82.64045945397973,0.267396486988218,0.16374804441931412,0.24278750262991794,0.0901171891436987
ratm_flight_metric,piloted,flight-01p-ellipse,ellipse,piloted/flight-01p-ellipse/flight-01p-ellipse_500hz_freq_sync.csv,https://github.com/Drone-Racing/drone-racing-dataset/releases/tag/v3.0.0,42081926,150129027,52771,52771,105.54,499.99999999999994,8.446077392963003,8.16415252967542,7.577673237533141,4.5800813435139585,8.422272391036842,22.70000076,22.89999962,23.29999924,23.5,-1.3000000000000007,1.0420222160335029,1.3893638249411224,2.432734161816554,0.2605055540083757,0.3473409562352806,0.29335481219487897,1256.0,1342.0,1287.0,3.7229149017703733,9.425669861113239,15.870148240410618,64.96866262719334,37.956004860439236,287.03306507760584,0.0021129261895604396,0.002827072843633639,42.596,8.417975097901946,0.2690120441990382,-0.6336805970670786,-0.48536114565013777,0.08848512211570247,0.6348173107190083,0.4021941615696668,13.018860757345532,0.24604943112604802,0.3130982067675602,50.35514933823917,0.3650167320524061,0.1685974892896284,0.31362260440171363,0.32618242303576767
ratm_flight_metric,piloted,flight-02p-ellipse,ellipse,piloted/flight-02p-ellipse/flight-02p-ellipse_500hz_freq_sync.csv,https://github.com/Drone-Racing/drone-racing-dataset/releases/tag/v3.0.0,38732667,135714216,47146,47146,94.29,499.99999999999994,8.494734064641097,8.150171502726211,7.530544561341049,4.939179324321785,8.482762255033105,22.900221810149606,23.10000038,23.60000038,23.20000076,-1.0000007600000025,1.0335358946278677,1.417201586606433,2.179816039762309,0.2583839736569669,0.35430039665160823,0.2568487147975466,1254.0,1350.0,1250.0,3.544894725919929,12.893057083018482,16.83233948097845,98.11612641029828,39.7841470448356,287.99310848759455,0.0020981251513486517,0.0029070094375,83.252,-8.397515331452782,-1.152539141731484,-0.5602647711271758,0.6037510357857143,-0.060175741192307695,-2.5612098320906593,0.40451114593529036,13.169292496287728,0.24889250967799778,0.31524830164162737,50.67818979410022,0.32695164059738707,0.13104836940261294,0.2607255462810412,0.3086693029091453
ratm_flight_metric,piloted,flight-03p-ellipse,ellipse,piloted/flight-03p-ellipse/flight-03p-ellipse_500hz_freq_sync.csv,https://github.com/Drone-Racing/drone-racing-dataset/releases/tag/v3.0.0,35601029,128638982,45425,45425,90.848,500.0,8.256000923862528,7.708817437853965,7.0787692958860156,4.264511642120083,8.24643388479967,23.10000038,23.20000076,23.70000076,24.10000038,-1.9000003800000016,1.0106342071165155,1.3941444580363291,2.0888838655872135,0.2526585517791289,0.3485361145090823,0.21998416969215018,1248.0,1343.800000000003,1215.0,3.4252652074727803,5.003508075737008,16.573207933979575,53.251470281478625,40.67437356165832,232.375002307485,0.00205713260989011,0.002671374151575697,20.276,8.239993174496401,-0.32585932643532606,0.3973404565945283,-0.25060363278236913,0.21863998889807162,0.5390661037465565,0.39314290113631084,12.439483104004452,0.23509950665348736,0.3049134132440625,49.068709164177086,0.28099999,0.1356455707709977,0.20806331414261459,0.2552278038549885
ratm_flight_metric,piloted,flight-04p-ellipse,ellipse,piloted/flight-04p-ellipse/flight-04p-ellipse_500hz_freq_sync.csv,https://github.com/Drone-Racing/drone-racing-dataset/releases/tag/v3.0.0,41548086,153322721,53396,53396,106.79,499.99999999999994,8.566510158459565,7.621054590695585,7.234395544566164,4.731314257459214,8.562499223278682,23.10000038,23.20000076,23.70000076,24.20000076,-2.0000007600000025,1.031348415300307,1.3432788329362269,2.111973952032915,0.25783710382507674,0.3358197082340567,0.2121389689828726,1253.0,1332.0,1207.0,3.152025150769197,6.983649748804676,15.801881369894971,40.42872129232686,41.256029655305205,293.34469978783767,0.00207329214010989,0.0027336189708473345,26.594,8.468947282661432,1.2622697303467219,-0.26211323191109254,-0.5236400187272727,0.07246554125619835,0.5955963426942149,0.40792905516474115,13.392780073835842,0.25311630409014907,0.3184607629675105,51.15003341035292,0.25955588291466347,0.12958653846153848,0.23915925131610577,0.22025420323918268
ratm_flight_metric,piloted,flight-05p-ellipse,ellipse,piloted/flight-05p-ellipse/flight-05p-ellipse_500hz_freq_sync.csv,https://github.com/Drone-Racing/drone-racing-dataset/releases/tag/v3.0.0,34145944,121538741,42276,42276,84.55,500.0,9.510282386068585,8.105469988841058,7.557861502661692,4.8763416493860365,9.49587018254714,23.10000038,23.29999924,23.89999962,24.10000038,-1.9000003800000016,1.008947300748978,1.49652397499978,2.277223928842505,0.2522368251872445,0.374130993749945,0.21328870743731895,1247.0,1368.0,1210.0,4.404975313609091,12.52912715587241,18.499931803686966,65.0464150117901,41.31798209089819,375.7002396115622,0.002054245471274937,0.0026999204035812675,23.926,9.49581866333389,0.03127997550499559,0.5233741863891904,-0.21878872615384615,0.2514639413434066,0.5405773766510988,0.45287058981278977,16.506298468954864,0.311960118783173,0.3651596668904458,56.83429202666366,0.22313625012486266,0.16111767062431326,0.2499690340625312,0.21893187493756866
ratm_flight_metric,piloted,flight-06p-ellipse,ellipse,piloted/flight-06p-ellipse/flight-06p-ellipse_500hz_freq_sync.csv,https://github.com/Drone-Racing/drone-racing-dataset/releases/tag/v3.0.0,37770811,134332880,46689,46689,93.376,500.0,8.46188386385428,8.044150529545155,7.180181038469688,4.663980070077029,8.450357913724233,23.20167498114049,23.29999924,23.89999962,24.5,-2.3000000000000007,1.0197265025416127,1.3253573235001688,2.1105399348160336,0.25493162563540317,0.3313393308750422,0.17345179315791984,1250.0,1327.0,1168.0,3.458255716052915,5.87396763910101,15.603516389187456,57.656073370250375,40.90372352654974,268.2093231018403,0.0020735224132231406,0.0027736114292011014,6.194,-8.42686146700438,-0.6297258816013096,0.4415083864613296,0.40297980166483516,-0.259098373,-2.8398125268241756,0.4029468506597277,13.067634830877736,0.2469712347515709,0.31379423077382884,50.46037270933383,0.25468587786259544,0.06242146946564885,0.15347119127767175,0.22322863402576335
ratm_flight_metric,piloted,flight-07p-lemniscate,lemniscate,piloted/flight-07p-lemniscate/flight-07p-lemniscate_500hz_freq_sync.csv,https://github.com/Drone-Racing/drone-racing-dataset/releases/tag/v3.0.0,43342901,153304897,53473,53473,106.944,500.0,8.346416982602328,7.6820686529720525,6.744745895902342,4.24773355022063,8.33270791692631,22.79999924,23.0,23.460200772199503,23.79999924,-1.599999239999999,1.0468619482664527,1.318220091021789,2.0932229856681293,0.2617154870666132,0.32955502275544724,0.2916296337046749,1257.0,1325.0,1288.0,2.7986120327970023,4.066569090379579,14.624926571801165,39.05152593311818,37.24253592381648,180.38971875141078,0.002126039903846154,0.0027030330461538465,32.022,-8.313478077617466,0.5657768833915051,0.47817906548294814,0.5266040142912088,-0.20786125538736264,-2.6836188386895605,0.397448427742968,12.713438451663741,0.2402771146409969,0.3087641202479527,49.68549343040037,0.32139936830386573,0.2140402557187094,0.32136070082709023,0.30971820996903404
ratm_flight_metric,piloted,flight-08p-lemniscate,lemniscate,piloted/flight-08p-lemniscate/flight-08p-lemniscate_500hz_freq_sync.csv,https://github.com/Drone-Racing/drone-racing-dataset/releases/tag/v3.0.0,33676708,124866615,43584,43584,87.166,500.0,7.64838737056916,7.296540936137669,6.738966442766083,4.293027037854985,7.640895346069637,23.0,23.20000076,23.70000076,23.60000038,-1.4000003800000016,1.0374691566267036,1.3725881106530005,2.12699898959984,0.2593672891566759,0.3431470276632501,0.19234896928621104,1255.0,1338.0,1188.0,2.8421291850574306,6.755393746764807,15.73798066734616,68.67500709074001,39.857150555318,355.9078547128797,0.0020935444817909363,0.0026887845534889353,47.338,-7.025506765424785,3.0042530483564818,0.33844893365643336,0.027318209428571428,-0.4069527837142857,2.8154515682857144,0.36420892240805525,10.675853860076433,0.20176786725171308,0.28105475728934115,44.702457939442645,0.27014652684184387,0.09054242002781641,0.15462467921319292,0.2540822510619909
ratm_flight_metric,piloted,flight-09p-lemniscate,lemniscate,piloted/flight-09p-lemniscate/flight-09p-lemniscate_500hz_freq_sync.csv,https://github.com/Drone-Racing/drone-racing-dataset/releases/tag/v3.0.0,37399732,134295897,46667,46667,93.332,500.00000000000006,8.8933963874513,8.514223507276773,7.834143424599665,4.911226243333394,8.89339585712095,23.10000038,23.29999924,23.89999962,23.29999924,-1.099999239999999,1.0615793429238476,1.337798635693463,2.1525229790814384,0.2653948357309619,0.33444965892336576,0.29649446244406713,1260.0,1330.699999999997,1289.0,3.000635261592658,7.8182214345941645,16.116086468953597,53.235769082543676,41.20715001784532,257.3918395079202,0.0020496646887052344,0.0027402744146580687,84.534,8.747691964584149,1.6032389604191888,-0.003071298705159384,0.46945706368044077,0.3244095256694215,-0.3417379392011019,0.4234950660691095,14.434381123040561,0.27280200089526424,0.33370222556626566,53.22795930120188,0.32487875208949263,0.31268319018377944,0.32139113893527765,0.22702476856771875
ratm_flight_metric,piloted,flight-10p-lemniscate,lemniscate,piloted/flight-10p-lemniscate/flight-10p-lemniscate_500hz_freq_sync.csv,https://github.com/Drone-Racing/drone-racing-dataset/releases/tag/v3.0.0,37673188,134197089,46680,46680,93.358,500.0,8.278215939857247,7.795613013568059,7.410979637592463,4.902595793982007,8.263733797150698,22.79999924,23.0,23.39999962,23.70000076,-1.5000007600000025,1.0727878144240766,1.3062884840545985,2.2606858972325976,0.26819695360601914,0.32657212101364963,0.21216687897138692,1263.0,1322.0,1209.0,2.4415472924997537,6.799650943817707,14.731651608945489,78.69006681546874,44.901396573736136,539.2282695359123,0.0020696810027472524,0.002843148622327673,32.836,-8.090810157657849,1.6816917859439264,-0.4894516081656092,0.416865002032967,-0.2953810813131868,-3.02711627971978,0.3942007590408213,12.506516794310457,0.23636640716602,0.30585234028669106,49.221063134526254,0.24570361761641354,0.14870361058030776,0.23977834355425928,0.21448194413456703
ratm_flight_metric,piloted,flight-11p-lemniscate,lemniscate,piloted/flight-11p-lemniscate/flight-11p-lemniscate_500hz_freq_sync.csv,https://github.com/Drone-Racing/drone-racing-dataset/releases/tag/v3.0.0,43773454,155646228,54001,54001,108.0,500.0,8.469931132647398,8.000977639171493,7.302244730138475,4.39428852293245,8.468746099447053,22.89999962,23.10000038,23.70000076,23.79999924,-1.599999239999999,1.043105702812345,1.3074794077812995,2.297596199461615,0.26077642570308623,0.32686985194532486,0.30621178009646555,1257.0,1322.0,1300.0,2.8216834787681946,7.791186848982491,14.858663614053162,54.823356359677106,40.47347952214337,231.01886614121818,0.002066362379120879,0.0026912597933884297,47.986,-8.40046311147364,1.0732567305497298,0.14167884418624674,0.5970798984093407,-0.26853886255219783,-2.789895779368132,0.40333005393559035,13.092501344001606,0.24744119840831902,0.3141494910500287,50.5138392532978,0.336,0.2305123915089407,0.34138428619366307,0.3169504426832584
ratm_flight_metric,piloted,flight-12p-lemniscate,lemniscate,piloted/flight-12p-lemniscate/flight-12p-lemniscate_500hz_freq_sync.csv,https://github.com/Drone-Racing/drone-racing-dataset/releases/tag/v3.0.0,41844113,150847313,52430,52430,104.858,500.0,7.6304421889191865,7.208450463497879,6.887614821902899,4.153427427430823,7.629779567881514,23.0,23.29999924,24.0,23.79999924,-1.599999239999999,1.017236598048598,1.2440000123330326,2.117629013503949,0.2543091495121495,0.31100000308325815,0.2796524647159944,1250.0,1307.0,1274.0,2.514714551762748,5.363928387509216,14.168516265796075,38.12820149712856,38.804200450380364,251.97652798479268,0.002067423966942149,0.0027656948763736264,63.896,7.411923038075509,1.810230132361008,-0.10055716769876591,0.15376609231404958,0.3573865417355372,-0.031783081652892564,0.3633543899485327,10.625815759714904,0.20082217420237036,0.28040371485056953,44.5678796565023,0.29395866687919125,0.28436694023721354,0.32569251918826947,0.21459173255930336
ratm_flight_metric,piloted,flight-13p-trackRATM,trackRATM,piloted/flight-13p-trackRATM/flight-13p-trackRATM_500hz_freq_sync.csv,https://github.com/Drone-Racing/drone-racing-dataset/releases/tag/v3.0.0,33584879,101316067,22397,22397,44.792,500.0,19.45478444868552,18.653126674866225,17.29928605522713,9.350481519758027,18.82616505727356,21.29999924,21.60022304486203,22.39999962,22.0,0.1999999999999993,1.9259691173881879,3.242315798778349,3.8389866027015644,0.48149227934704697,0.8105789496945872,0.5039277055284872,1453.0,1833.2000000000007,1486.0,12.251846113268181,14.12403640412463,52.90572666666138,62.07436420195036,86.81279762354117,1712.6152463174699,0.0014085011043956043,0.0025793668648351653,37.852,-18.822212820227502,0.31931563056281737,4.910293272601704,0.3550578047087912,-0.5845469525412087,-2.9188082248434064,0.9264183070802628,69.07417642492891,1.3054645972202064,1.2946561070115494,81.12381462495378,0.6801457760314342,0.7720406778958743,0.416258159935167,0.1472662082514735
ratm_flight_metric,piloted,flight-14p-trackRATM,trackRATM,piloted/flight-14p-trackRATM/flight-14p-trackRATM_500hz_freq_sync.csv,https://github.com/Drone-Racing/drone-racing-dataset/releases/tag/v3.0.0,32557992,100852653,22263,22263,44.524,500.0,18.501018898613236,17.93687918109821,16.606852388380553,9.122411695092483,18.110177213192557,20.60000038,21.0,21.79999924,21.916921808471898,0.28307819152810154,1.986413878014354,3.3280796374941755,3.7892105193947447,0.4966034695035885,0.8320199093735439,0.2538331595450747,1468.0,1854.0,1235.0,12.183279847969798,14.042306883537657,49.13573232229411,57.4541308838995,82.27818173826171,667.1286498908083,0.0014155315384615384,0.002609062846153849,24.874,-17.972498443199903,0.7159764295739645,4.331786900150521,0.9478428671428571,-0.34176599964285714,-2.6341307082142857,0.8810008999339636,62.467505302349046,1.1806020841596467,1.1739273456053507,80.20240183128794,0.07658948072208602,0.32801894734120796,0.37598106638511253,0.23474314373189215
ratm_flight_metric,piloted,flight-15p-trackRATM,trackRATM,piloted/flight-15p-trackRATM/flight-15p-trackRATM_500hz_freq_sync.csv,https://github.com/Drone-Racing/drone-racing-dataset/releases/tag/v3.0.0,26140527,78911337,17359,17359,34.716,500.0,19.713845956649322,18.792545745955344,16.89449293644344,9.171415644529839,19.154025373229707,20.5,20.89999962,21.60000038,21.60000038,0.5999996199999984,1.9653933970612416,3.3989568678486677,3.7927680382271216,0.4913483492653104,0.8497392169621669,0.4762266813542814,1463.0,1892.0,1439.0,12.27062024818248,13.666616873818077,51.9928604156535,60.79611491288427,84.00922552332376,1054.2419242758733,0.0014133565316804407,0.0025760167459109025,14.422,-19.137887083551515,0.7861081195099917,4.664658015779007,0.3335798458402204,-0.526584392016529,-2.924112828187328,0.9387545693642535,70.92601933845604,1.3404634272945712,1.3285493372851886,81.3520177851598,0.610614031110666,0.7041867602493741,0.4755727392178267,0.11453319483925889
ratm_flight_metric,piloted,flight-16p-trackRATM,trackRATM,piloted/flight-16p-trackRATM/flight-16p-trackRATM_500hz_freq_sync.csv,https://github.com/Drone-Racing/drone-racing-dataset/releases/tag/v3.0.0,24628229,71140712,15614,15614,31.226,500.0,21.293717783147805,20.36378427316138,19.161284422766762,10.389021195497389,20.854155758470924,20.79999924,21.20000076,21.79999924,21.70000076,0.4999992399999975,2.2752113909624168,3.5779949867394585,3.8619442292853523,0.5688028477406042,0.8944987466848646,0.434906738531746,1551.0,2012.0,1404.0,12.670809013636436,14.205805800095504,56.66032631076999,62.226640660794764,91.47075668728536,1663.251753738048,0.0014637681112637363,0.002738234067037508,20.34,-20.849437148812104,-0.4436022726494844,4.304254247808687,0.44015454516758246,-0.599661876706044,-2.7723074994065935,1.0139865611022765,82.74959110767297,1.563922542644,1.545365764966208,82.5727518083424,0.6275301408095237,0.7021650731269842,0.3322777719365079,0.07765396825396825
ratm_flight_metric,piloted,flight-17p-trackRATM,trackRATM,piloted/flight-17p-trackRATM/flight-17p-trackRATM_500hz_freq_sync.csv,https://github.com/Drone-Racing/drone-racing-dataset/releases/tag/v3.0.0,31776243,94559609,20751,20751,41.5,500.0,18.918663425982913,17.99010152721332,16.55299312304926,8.848750172449101,18.447203269599985,21.5,21.70000076,22.531226791963174,22.20000076,-7.600000024865494e-07,1.848832853130888,3.1949463991091913,3.8003618183143866,0.462208213282722,0.7987365997772978,0.269691206194664,1432.0,1797.0,1231.0,12.164873949908287,13.536346684238808,50.40178929516244,63.263194320750245,85.02685146951566,2688.785794475427,0.001393378478021978,0.002625583053946054,30.028,-18.173266542076426,1.6729622190160995,4.984917896015327,0.706176507543956,-0.4510609804038462,-2.790089405879121,0.9008887345706149,65.3196382131763,1.2345058544883196,1.226007228646962,80.62243914615995,0.15199052118972334,0.3892885401936759,0.39677430094466404,0.14071146245059288
ratm_flight_metric,piloted,flight-18p-trackRATM,trackRATM,piloted/flight-18p-trackRATM/flight-18p-trackRATM_500hz_freq_sync.csv,https://github.com/Drone-Racing/drone-racing-dataset/releases/tag/v3.0.0,31978709,100220943,22017,22017,44.032,500.00000000000006,20.844865360223448,19.46838514907936,17.829591630039666,9.733158609200906,20.554316043638945,21.60000038,21.89999962,22.5,22.70000076,-0.5000007600000025,2.035430489054859,3.381613049582625,3.85176008033797,0.5088576222637148,0.8454032623956562,0.5189118519103466,1482.0,1904.0,1503.0,12.197515484236389,13.58675478575104,54.723962582448756,65.5418781400285,90.4796365980296,1290.5964460385835,0.0014053921428571429,0.0026684044175824184,18.382,-20.52873647216889,0.8194846131714227,3.5224757927999097,0.23003644305785123,-0.8430818596143251,-2.934194183553719,0.9926126362011166,79.29778516916642,1.4986852762381935,1.4820027899519657,82.25329158782422,0.7845115824108488,0.8446785575710698,0.335372383650427,0.11108488400904068
